                                                   Time (sec), Rel-Vel (ft/sec), Inertl-Vel (ft/sec), Mach, Alt (ft), Qbar (psf), Gamma (deg), Pitch (deg), Alpha (deg), Roll (deg), Heading (deg), NZ (G), NX (G), Qalpha (psf-deg), Hdot (ft/sec), CL, CD, CN, CA, CP (in), L/D, Thrust (lbs), Isp (sec), Weight (lbs), CG (in), IYY (slug-ft^2), TVA (deg), TVAFLG, T2 (sec), Geod-Lat (deg), Long (deg), Range (NM), Pitch-Rate (deg/sec), Roll-Rate (deg/sec), Stag-Temp (deg-F), Total-Heat (BTU/Sqft), TM-LOS
         0.000,          0.000,       1257.784,          0.000,        385.000,          0.000,         90.000,         90.000,          0.000,          0.000,        180.000,          0.000,          1.284,          0.000,          0.000,          0.000,          0.243,          0.000,          0.243,        460.000,          0.000,     102534.539,        246.056,      79850.000,          0.000,          0.000,          0.000,          0.000,          0.000,         34.576,        239.368,          0.000,          0.000,          0.000,          0.000,          0.000,          1.000
         1.010,         35.115,       1258.273,          0.031,        398.715,          1.448,         89.826,         90.000,          0.173,          0.000,        180.989,          0.000,          2.527,          0.251,         35.114,          0.007,          0.229,          0.008,          0.229,        460.000,          0.031,     200085.172,        245.663,      79170.453,          0.000,          0.000,          0.000,          0.000,          0.000,         34.576,        239.368,          0.000,          0.000,          0.000,          0.000,          0.000,          1.000
         2.010,         84.668,       1260.626,          0.076,        458.295,          8.406,         89.859,         89.824,         -0.033,          0.000,        182.451,          0.000,          2.551,          0.278,         84.667,          0.006,          0.210,          0.006,          0.210,        460.000,          0.028,     199926.922,        245.731,      78356.406,          0.000,          0.000,          0.000,          0.000,          0.000,         34.576,        239.368,          1.188,        -17.592,          0.000,          0.000,          0.000,          0.000
         3.010,        134.959,       1264.982,          0.121,        567.793,         21.289,         88.456,         85.143,         -3.313,          0.000,        180.517,         -0.001,          2.576,         70.525,        134.898,         -0.135,          0.205,         -0.146,          0.197,        460.000,         -0.656,     199814.547,        245.855,      77543.219,          0.000,          0.000,          0.000,          0.000,          0.000,         34.576,        239.368,          0.000,         -6.109,          0.000,          0.000,          0.000,          1.000
         4.010,        185.795,       1271.275,          0.167,        727.617,         40.159,         85.166,         78.207,         -6.960,          0.000,        180.659,         -0.004,          2.601,        279.496,        185.085,         -0.339,          0.237,         -0.365,          0.194,        460.000,         -1.433,     199747.984,        246.036,      76730.898,          0.000,          0.000,          0.000,          0.000,          0.000,         34.576,        239.368,          0.000,         -4.016,          0.000,          0.000,          0.000,          1.000
         5.000,        236.841,       1279.479,          0.213,        934.959,         64.861,         81.336,         74.373,         -6.963,          0.000,        180.721,         -0.007,          2.627,        451.609,        234.026,         -0.341,          0.233,         -0.366,          0.190,        460.000,         -1.462,     199726.188,        246.270,      75927.570,          0.000,          0.000,          0.000,          0.000,          0.000,         34.576,        239.368,          0.000,         -3.726,          0.000,          0.000,          0.000,          1.000
         6.000,        289.601,       1289.942,          0.260,       1193.340,         96.241,         77.736,         70.771,         -6.965,          0.000,        180.763,         -0.011,          2.659,        670.331,        282.799,         -0.342,          0.230,         -0.368,          0.187,        460.000,         -1.489,     200152.297,        246.557,      75116.617,          0.000,          0.000,          0.000,          0.000,          0.000,         34.576,        239.368,          1.188,         -3.491,          0.000,          0.000,          0.000,          1.000
         7.000,        343.906,       1302.773,          0.310,       1499.859,        134.497,         74.349,         67.382,         -6.967,          0.000,        180.799,         -0.016,          2.696,        937.052,        330.864,         -0.344,          0.228,         -0.369,          0.185,        460.000,         -1.504,     200901.234,        246.892,      74303.820,          0.000,          0.000,          0.000,          0.000,          0.000,         34.576,        239.368,          0.000,         -3.295,          0.000,          0.000,          0.000,          1.000
         8.000,        399.894,       1318.136,          0.360,       1854.109,        179.957,         71.142,         64.173,         -6.969,          0.000,        180.828,         -0.021,          2.734,       1254.065,        378.023,         -0.345,          0.227,         -0.370,          0.183,        460.000,         -1.520,     201690.062,        247.275,      73489.148,          0.000,          0.000,          0.000,          0.000,          0.000,         34.576,        239.368,          0.000,         -3.122,          0.000,          0.000,          0.000,          1.000
         9.000,        457.710,       1336.211,          0.413,       2255.178,        232.965,         68.149,         61.678,         -6.471,          0.000,        180.853,         -0.025,          2.773,       1507.584,        424.293,         -0.312,          0.218,         -0.335,          0.182,        460.000,         -1.428,     202516.656,        247.701,      72672.492,          0.000,          0.000,          0.000,          0.000,          0.000,         34.575,        239.368,          0.000,         -2.370,          0.000,          0.000,          0.000,          1.000
        10.000,        517.477,       1357.176,          0.468,       2702.047,        293.843,         65.402,         59.429,         -5.973,          0.000,        180.876,         -0.028,          2.813,       1755.241,        469.842,         -0.278,          0.210,         -0.298,          0.180,        460.000,         -1.322,     203378.719,        248.170,      71853.953,          0.000,          0.000,          0.000,          0.000,          0.000,         34.575,        239.368,          0.000,         -2.116,         -0.015,          0.000,          0.000,          1.000
        11.000,        579.363,       1381.246,          0.525,       3194.373,        362.953,         63.017,         59.039,         -3.978,          0.000,        180.897,         -0.021,          2.854,       1443.777,        515.472,         -0.167,          0.192,         -0.180,          0.180,        460.000,         -0.869,     204274.422,        248.677,      71033.453,          0.000,          0.000,          0.000,          0.000,          0.000,         34.574,        239.368,          0.000,         -0.124,         -0.016,          0.000,          0.000,          1.000
        12.000,        643.438,       1408.620,          0.584,       3733.307,        440.500,         61.257,         61.271,          0.014,          0.000,        180.916,         -0.000,          2.896,          6.160,        563.185,         -0.001,          0.183,         -0.001,          0.183,        460.000,         -0.006,     205203.047,        249.221,      70211.031,          0.000,          0.000,          0.000,          0.000,          0.000,         34.573,        239.368,          2.057,          2.545,         -0.018,          0.000,          0.000,          1.000
        13.000,        709.356,       1439.232,          0.645,       4320.973,        525.994,         59.962,         60.574,          0.612,          0.000,        180.934,          0.005,          2.938,        321.989,        612.975,          0.025,          0.186,          0.027,          0.185,        460.000,          0.137,     206164.516,        249.803,      69386.680,          0.000,          0.000,          0.000,          0.000,          0.000,         34.572,        239.368,          0.000,         -0.624,         -0.017,          0.000,          0.000,          1.000
        14.000,        776.998,       1473.026,          0.708,       4958.844,        619.040,         58.794,         59.505,          0.711,          0.000,        180.951,          0.007,          2.982,        440.320,        663.310,          0.030,          0.189,          0.032,          0.188,        460.000,          0.157,     207158.000,        250.421,      68560.383,          0.000,          0.000,          0.000,          0.000,          0.000,         34.571,        239.368,          1.680,         -1.033,         -0.016,          0.000,          0.000,          1.000
        15.000,        846.381,       1510.025,          0.773,       5647.254,        719.338,         57.696,         58.407,          0.711,          0.000,        180.968,          0.008,          3.026,        511.217,        713.966,          0.030,          0.192,          0.032,          0.191,        460.000,          0.155,     208181.516,        251.072,      67732.188,          0.000,          0.000,          0.000,          0.000,          0.000,         34.570,        239.368,          0.000,         -1.070,         -0.017,          0.000,          0.000,          1.000
        16.000,        917.529,       1550.245,          0.840,       6386.344,        826.502,         56.656,         57.341,          0.685,          0.000,        180.985,          0.009,          3.071,        566.284,        764.908,          0.029,          0.195,          0.031,          0.194,        460.000,          0.147,     209197.531,        251.755,      66902.016,          0.000,          0.000,          0.000,          0.000,          0.000,         34.569,        239.368,          0.000,         -1.042,         -0.014,          0.000,          0.000,          1.000
        17.000,        990.270,       1593.572,          0.910,       7176.636,        939.684,         55.666,         56.325,          0.660,          0.000,        181.001,          0.010,          3.105,        619.886,        815.977,          0.028,          0.202,          0.030,          0.202,        461.801,          0.136,     209572.781,        252.489,      66071.500,          0.000,          0.000,          0.000,          0.000,          0.000,         34.568,        239.368,          1.188,         -0.993,         -0.012,          0.000,          0.000,          1.000
        18.000,       1064.219,       1639.726,          0.981,       8017.729,       1057.466,         54.722,         55.356,          0.634,          0.000,        181.016,          0.011,          3.128,        670.675,        866.861,          0.027,          0.239,          0.030,          0.239,        472.991,          0.113,     209970.781,        253.252,      65241.906,          0.000,          0.000,          0.000,          0.000,          0.000,         34.566,        239.368,          0.000,         -0.948,         -0.011,          0.000,          0.000,          1.000
        19.000,       1139.185,       1688.505,          1.053,       8909.709,       1178.609,         53.821,         54.430,          0.609,          0.000,        181.031,          0.013,          3.147,        717.548,        917.418,          0.027,          0.279,          0.030,          0.279,        479.940,          0.096,     210388.953,        254.042,      64413.270,          0.000,          0.000,          0.000,          0.000,          0.000,         34.564,        239.368,          0.000,         -0.909,         -0.012,        105.710,          0.095,          1.000
        20.000,       1213.984,       1739.005,          1.126,       9851.652,       1299.663,         52.960,         53.543,          0.583,          0.000,        181.046,          0.016,          3.100,        758.281,        966.724,          0.028,          0.452,          0.033,          0.452,        478.114,          0.062,     210823.906,        254.853,      63585.574,          0.000,          0.000,          0.000,          0.000,          0.000,         34.562,        239.368,          0.000,         -0.870,         -0.012,        144.079,          0.111,          1.000
        21.000,       1287.296,       1790.119,          1.199,      10841.905,       1416.473,         52.134,         52.692,          0.558,          0.000,        181.061,          0.019,          3.037,        790.541,       1013.774,          0.029,          0.624,          0.035,          0.624,        476.304,          0.047,     211273.109,        255.684,      62758.816,          0.000,          0.000,          0.000,          0.000,          0.000,         34.560,        239.368,          2.057,         -0.837,         -0.012,        156.045,          0.136,          1.000
        22.000,       1358.788,       1841.379,          1.270,      11877.906,       1527.091,         51.339,         51.872,          0.533,          0.000,        181.075,          0.021,          2.990,        813.660,       1058.361,          0.030,          0.744,          0.037,          0.744,        474.614,          0.040,     211731.422,        256.527,      61932.957,          0.000,          0.000,          0.000,          0.000,          0.000,         34.558,        239.368,          0.000,         -0.808,         -0.012,        160.095,          0.165,          1.000
        23.000,       1430.546,       1894.125,          1.343,      12957.972,       1635.138,         50.572,         51.080,          0.508,          0.000,        181.089,          0.022,          3.017,        829.924,       1102.144,          0.029,          0.728,          0.036,          0.727,        473.165,          0.040,     212195.016,        257.379,      61108.070,          0.000,          0.000,          0.000,          0.000,          0.000,         34.555,        239.368,          1.680,         -0.782,         -0.013,        165.877,          0.195,          1.000
        24.000,       1503.502,       1948.979,          1.417,      14081.746,       1741.873,         49.831,         50.324,          0.493,          0.000,        181.103,          0.024,          3.047,        858.770,       1145.864,          0.029,          0.711,          0.036,          0.711,        471.675,          0.041,     212661.359,        258.236,      60284.094,          0.000,          0.000,          0.000,          0.000,          0.000,         34.553,        239.368,          1.188,         -0.745,         -0.011,        172.159,          0.229,          1.000
        25.000,       1577.740,       2005.963,          1.494,      15249.254,       1846.682,         49.116,         49.595,          0.478,          0.000,        181.116,          0.026,          3.081,        883.606,       1189.599,          0.029,          0.694,          0.035,          0.694,        470.144,          0.042,     213128.094,        259.096,      59461.039,          0.000,          0.000,          0.000,          0.000,          0.000,         34.550,        239.368,          2.376,         -0.720,         -0.011,        179.257,          0.265,          1.000
        26.000,       1653.286,       2065.060,          1.572,      16460.504,       1948.807,         48.425,         48.889,          0.464,          0.000,        181.129,          0.027,          3.112,        904.178,       1233.368,          0.029,          0.683,          0.034,          0.683,        469.284,          0.042,     213592.984,        259.955,      58638.938,          0.000,          0.000,          0.000,          0.000,          0.000,         34.547,        239.368,          2.057,         -0.698,         -0.010,        187.206,          0.305,          1.000
        27.001,       1730.126,       2126.222,          1.654,      17715.566,       2047.400,         47.756,         48.206,          0.449,          0.000,        181.142,          0.028,          3.146,        920.222,       1277.156,          0.028,          0.672,          0.033,          0.672,        468.473,          0.042,     214053.844,        260.811,      57817.746,          0.000,          0.000,          0.000,          0.000,          0.000,         34.544,        239.368,          2.057,         -0.675,         -0.009,        196.085,          0.349,          1.000
        28.001,       1808.350,       2189.484,          1.737,      19014.398,       2141.867,         47.109,         47.544,          0.435,          0.000,        181.155,          0.029,          3.182,        931.674,       1321.030,          0.027,          0.662,          0.032,          0.661,        467.637,          0.042,     214508.453,        261.661,      56997.488,          0.000,          0.000,          0.000,          0.000,          0.000,         34.541,        239.368,          2.057,         -0.655,         -0.009,        205.984,          0.398,          1.000
        29.001,       1888.055,       2254.896,          1.823,      20357.264,       2231.438,         46.482,         46.902,          0.420,          0.000,        181.167,          0.029,          3.222,        938.290,       1365.060,          0.027,          0.650,          0.032,          0.650,        466.775,          0.041,     214955.875,        262.505,      56178.176,          0.000,          0.000,          0.000,          0.000,          0.000,         34.537,        239.368,          1.680,         -0.635,         -0.010,        216.998,          0.452,          1.000
        30.001,       1969.355,       2322.522,          1.913,      21744.152,       2315.090,         45.874,         46.280,          0.406,          0.000,        181.180,          0.030,          3.266,        939.982,       1409.327,          0.026,          0.639,          0.031,          0.638,        465.884,          0.041,     215396.375,        263.342,      55359.766,          0.000,          0.000,          0.000,          0.000,          0.000,         34.534,        239.368,          2.376,         -0.616,         -0.009,        229.225,          0.513,          1.000
        31.001,       2052.368,       2392.439,          2.005,      23175.582,       2392.814,         45.285,         45.683,          0.398,          0.000,        181.192,          0.031,          3.314,        952.576,       1453.920,          0.026,          0.627,          0.030,          0.627,        464.981,          0.041,     215825.188,        264.167,      54542.312,          0.000,          0.000,          0.000,          0.000,          0.000,         34.530,        239.368,          3.143,         -0.591,         -0.010,        242.767,          0.581,          1.000
        32.001,       2137.131,       2464.656,          2.100,      24651.672,       2463.948,         44.714,         45.104,          0.390,          0.000,        181.204,          0.032,          3.362,        961.375,       1498.871,          0.025,          0.619,          0.029,          0.619,        464.504,          0.041,     216317.625,        264.969,      53725.727,          0.000,          0.000,          0.000,          0.000,          0.000,         34.526,        239.368,          2.910,         -0.574,         -0.009,        257.709,          0.657,          1.000
        33.000,       2223.828,       2539.312,          2.199,      26172.988,       2528.154,         44.161,         44.543,          0.382,          0.000,        181.216,          0.032,          3.419,        966.425,       1544.302,          0.025,          0.612,          0.029,          0.612,        464.009,          0.040,     217052.562,        265.728,      52909.105,          0.000,          0.000,          0.000,          0.000,          0.000,         34.521,        239.368,          3.360,         -0.557,         -0.008,        274.169,          0.743,          1.000
        34.000,       2312.642,       2616.550,          2.302,      27740.064,       2585.119,         43.625,         43.999,          0.374,          0.000,        181.228,          0.033,          3.480,        967.794,       1590.336,          0.024,          0.604,          0.028,          0.604,        463.494,          0.040,     217770.875,        266.465,      52092.059,          0.000,          0.000,          0.000,          0.000,          0.000,         34.517,        239.368,          3.756,         -0.540,         -0.009,        292.268,          0.840,          1.000
        35.000,       2403.713,       2696.479,          2.409,      29353.418,       2634.451,         43.105,         43.471,          0.366,          0.000,        181.239,          0.033,          3.545,        965.430,       1637.059,          0.024,          0.595,          0.028,          0.595,        462.958,          0.040,     218471.188,        267.180,      51274.578,          0.000,          0.000,          0.000,          0.000,          0.000,         34.512,        239.368,          4.283,         -0.524,         -0.009,        312.113,          0.951,          1.000
        36.010,       2498.155,       2780.082,          2.522,      31030.789,       2668.197,         42.596,         42.954,          0.358,          0.000,        181.251,          0.033,          3.619,        956.526,       1685.056,          0.023,          0.587,          0.027,          0.586,        462.394,          0.040,     219180.609,        267.904,      50448.484,          0.000,          0.000,          0.000,          0.000,          0.000,         34.507,        239.368,          3.939,         -0.509,         -0.009,        334.050,          1.080,          1.000
        37.010,       2594.364,       2865.932,          2.639,      32739.785,       2686.161,         42.107,         42.457,          0.351,          0.000,        181.262,          0.033,          3.699,        941.789,       1733.542,          0.023,          0.577,          0.026,          0.577,        461.810,          0.039,     219877.609,        268.613,      49630.137,          0.000,          0.000,          0.000,          0.000,          0.000,         34.502,        239.368,          4.897,         -0.496,         -0.009,        357.708,          1.226,          1.000
        38.010,       2693.455,       2955.011,          2.762,      34497.719,       2693.590,         41.632,         41.975,          0.343,          0.000,        181.273,          0.033,          3.785,        923.170,       1783.100,          0.022,          0.568,          0.026,          0.568,        461.198,          0.039,     220551.922,        269.293,      48811.363,          0.000,          0.000,          0.000,          0.000,          0.000,         34.497,        239.368,          4.751,         -0.481,         -0.008,        383.499,          1.395,          1.000
        39.009,       2795.614,       3047.487,          2.888,      36305.840,       2690.214,         41.172,         41.507,          0.335,          0.000,        181.285,          0.033,          3.877,        900.818,       1833.840,          0.022,          0.558,          0.025,          0.558,        460.566,          0.039,     221195.281,        269.935,      47992.156,          0.000,          0.000,          0.000,          0.000,          0.000,         34.491,        239.368,          5.039,         -0.467,         -0.008,        411.896,          1.590,          1.000
        40.009,       2900.951,       3143.461,          2.997,      38165.336,       2675.701,         40.725,         41.052,          0.327,          0.000,        181.295,          0.032,          3.971,        874.901,       1885.815,          0.021,          0.549,          0.024,          0.549,        460.022,          0.038,     221732.703,        270.448,      47172.504,          0.000,          0.000,          0.000,          0.000,          0.000,         34.485,        239.368,          5.443,         -0.454,         -0.008,        446.926,          1.821,          1.000
        41.009,       3009.553,       3243.008,          3.109,      40077.395,       2649.781,         40.292,         40.611,          0.319,          0.000,        181.306,          0.032,          4.068,        845.574,       1939.064,          0.021,          0.543,          0.024,          0.543,        459.462,          0.038,     222255.797,        270.942,      46352.398,          0.000,          0.000,          0.000,          0.000,          0.000,         34.479,        239.368,          6.057,         -0.442,         -0.009,        483.915,          2.095,          1.000
        42.009,       3121.590,       3346.288,          3.225,      42043.348,       2605.332,         39.872,         40.183,          0.311,          0.000,        181.317,          0.031,          4.173,        810.919,       1993.678,          0.020,          0.537,          0.023,          0.537,        458.883,          0.037,     222775.344,        271.431,      45531.859,          0.000,          0.000,          0.000,          0.000,          0.000,         34.473,        239.368,          6.057,         -0.428,         -0.009,        523.245,          2.423,          1.000
        43.009,       3237.306,       3453.524,          3.344,      44064.664,       2549.098,         39.464,         39.767,          0.303,          0.000,        181.328,          0.030,          4.285,        773.366,       2049.793,          0.019,          0.531,          0.022,          0.531,        458.286,          0.037,     223277.875,        271.899,      44710.887,          0.000,          0.000,          0.000,          0.000,          0.000,         34.466,        239.368,          6.613,         -0.417,         -0.008,        564.890,          2.813,          1.000
        44.009,       3356.920,       3564.923,          3.468,      46142.891,       2481.448,         39.068,         39.363,          0.296,          0.000,        181.338,          0.029,          4.404,        733.342,       2107.527,          0.019,          0.524,          0.022,          0.524,        457.668,          0.036,     223762.219,        272.345,      43889.484,          0.000,          0.000,          0.000,          0.000,          0.000,         34.459,        239.368,          6.926,         -0.405,         -0.008,        608.788,          3.279,          1.000
        45.008,       3480.653,       3680.693,          3.595,      48279.707,       2402.868,         38.684,         38.971,          0.288,          0.000,        181.349,          0.027,          4.531,        691.263,       2166.996,          0.018,          0.518,          0.021,          0.518,        457.029,          0.035,     224227.500,        272.767,      43067.652,          0.000,          0.000,          0.000,          0.000,          0.000,         34.452,        239.368,          7.512,         -0.393,         -0.007,        654.835,          3.835,          1.000
        46.008,       3608.722,       3801.042,          3.728,      50476.910,       2317.577,         38.311,         38.591,          0.280,          0.000,        181.359,          0.026,          4.663,        648.532,       2228.317,          0.018,          0.511,          0.020,          0.511,        456.368,          0.035,     224668.688,        273.159,      42245.387,          0.000,          0.000,          0.000,          0.000,          0.000,         34.444,        239.368,          7.789,         -0.383,         -0.007,        702.931,          4.497,          1.000
        47.008,       3741.211,       3926.052,          3.865,      52736.367,       2241.890,         37.950,         38.222,          0.272,          0.000,        181.369,          0.025,          4.796,        609.771,       2291.523,          0.017,          0.503,          0.020,          0.503,        455.684,          0.034,     225067.141,        273.499,      41422.691,          0.000,          0.000,          0.000,          0.000,          0.000,         34.436,        239.368,          8.229,         -0.371,         -0.009,        753.110,          5.285,          1.000
        48.008,       3878.233,       4055.830,          4.006,      55059.969,       2157.931,         37.599,         37.863,          0.264,          0.000,        181.379,          0.023,          4.932,        569.996,       2356.663,          0.017,          0.496,          0.019,          0.496,        454.976,          0.033,     225267.516,        273.842,      40599.680,          0.000,          0.000,          0.000,          0.000,          0.000,         34.428,        239.368,          8.889,         -0.362,         -0.008,        804.891,          6.222,          1.000
        49.008,       4019.684,       4190.281,          4.152,      57449.641,       2066.067,         37.260,         37.516,          0.256,          0.000,        181.390,          0.022,          5.064,        529.532,       2423.658,          0.016,          0.491,          0.018,          0.491,        454.246,          0.033,     225188.422,        274.201,      39777.766,          0.000,          0.000,          0.000,          0.000,          0.000,         34.419,        239.368,          9.428,         -0.351,         -0.007,        857.889,          7.331,          1.000
        50.008,       4165.660,       4329.493,          4.303,      59907.234,       1967.076,         36.931,         37.179,          0.248,          0.000,        181.399,          0.021,          5.203,        488.746,       2492.550,          0.016,          0.486,          0.018,          0.486,        453.492,          0.032,     225091.359,        274.540,      38957.191,          0.000,          0.000,          0.000,          0.000,          0.000,         34.410,        239.368,          9.867,         -0.340,         -0.007,        911.758,          8.640,          1.000
        51.007,       4316.327,       4473.623,          4.459,      62434.699,       1872.835,         36.612,         36.852,          0.241,          0.000,        181.409,          0.020,          5.346,        450.632,       2563.421,          0.015,          0.481,          0.017,          0.481,        452.714,          0.032,     224966.938,        274.846,      38138.008,          0.000,          0.000,          0.000,          0.000,          0.000,         34.401,        239.368,         10.490,         -0.331,         -0.007,        950.091,         10.138,          1.000
        52.007,       4471.818,       4622.800,          4.619,      65034.023,       1774.707,         36.303,         36.536,          0.233,          0.000,        181.419,          0.019,          5.495,        413.133,       2636.337,          0.015,          0.476,          0.017,          0.476,        451.912,          0.031,     224825.047,        275.132,      37320.168,          0.000,          0.000,          0.000,          0.000,          0.000,         34.391,        239.368,         11.079,         -0.322,         -0.008,       1016.099,         11.881,          1.000
        53.007,       4632.040,       4776.930,          4.779,      67707.320,       1672.119,         36.004,         36.229,          0.225,          0.000,        181.429,          0.017,          5.520,        376.151,       2711.227,          0.014,          0.470,          0.016,          0.470,        451.115,          0.031,     219924.438,        276.128,      36505.125,          0.000,          0.000,          0.000,          0.000,          0.000,         34.381,        239.368,         11.698,         -0.313,         -0.007,       1079.327,         13.961,          1.000
        54.007,       4777.856,       4917.512,          4.920,      70452.375,       1554.573,         35.713,         35.930,          0.217,          0.000,        181.439,          0.016,          4.702,        337.570,       2776.858,          0.014,          0.466,          0.016,          0.466,        450.409,          0.030,     185184.859,        279.907,      35778.973,          0.000,          0.000,          0.000,          0.000,          0.000,         34.371,        239.368,         12.401,         -0.307,         -0.007,       1132.148,         16.380,          1.000
        55.007,       4896.697,       5032.267,          5.032,      73254.969,       1428.112,         35.427,         35.637,          0.209,          0.000,        181.448,          0.015,          3.836,        299.006,       2826.033,          0.014,          0.463,          0.015,          0.463,        449.938,          0.029,     150424.922,        279.907,      35180.094,          0.000,          0.000,          0.000,          0.000,          0.000,         34.360,        239.368,         12.957,         -0.302,         -0.007,       1169.989,         19.093,          1.000
        56.007,       4987.141,       5119.678,          5.115,      76098.398,       1291.042,         35.145,         35.347,          0.202,          0.000,        181.458,          0.013,          2.930,        260.288,       2858.151,          0.013,          0.461,          0.015,          0.461,        449.771,          0.028,     115651.281,        279.907,      34705.418,          0.000,          0.000,          0.000,          0.000,          0.000,         34.349,        239.368,         13.491,         -0.299,         -0.007,       1193.048,         22.017,          1.000
        57.006,       5048.041,       5178.533,          5.167,      78965.227,       1149.680,         34.865,         35.059,          0.194,          0.000,        181.467,          0.011,          1.993,        222.929,       2872.781,          0.013,          0.461,          0.014,          0.461,        449.666,          0.027,      80864.258,        279.907,      34354.988,          0.000,          0.000,          0.000,          0.000,          0.000,         34.338,        239.368,         14.303,         -0.295,         -0.007,       1201.899,         25.056,          1.000
        58.006,       5084.292,       5213.516,          5.194,      81838.844,       1015.443,         34.585,         34.778,          0.193,          0.000,        181.476,          0.010,          1.528,        195.837,       2872.953,          0.013,          0.460,          0.014,          0.460,        449.612,          0.027,      63056.930,        279.907,      34106.797,          0.000,          0.000,          0.000,          0.000,          0.000,         34.326,        239.368,         14.978,         -0.292,         -0.006,       1200.179,         28.122,          1.000
        59.006,       5079.562,       5208.753,          5.179,      84704.109,        884.628,         34.303,         34.495,          0.192,          0.000,        181.486,          0.009,         -0.311,        169.719,       2849.654,          0.012,          0.510,          0.014,          0.510,        449.641,          0.024,          0.000,          0.000,      34017.871,          0.000,          0.000,          0.000,          0.000,          0.000,         34.315,        239.368,         15.668,         -0.296,         -0.007,       1181.417,         31.114,          1.000
        60.006,       5052.436,       5182.269,          5.142,      87535.891,        764.251,         34.018,         34.209,          0.191,          0.000,        181.495,          0.007,         -0.269,        145.846,       2813.587,          0.012,          0.511,          0.014,          0.511,        449.716,          0.024,          0.000,          0.000,      34017.871,          0.000,          0.000,          0.000,          0.000,          0.000,         34.303,        239.368,         16.373,         -0.299,         -0.007,       1154.946,         33.945,          1.000
        61.006,       5026.700,       5157.141,          5.106,      90332.062,        661.001,         33.730,         33.920,          0.190,          0.000,        181.504,          0.006,         -0.233,        125.464,       2778.234,          0.012,          0.512,          0.014,          0.512,        449.788,          0.024,          0.000,          0.000,      34017.871,          0.000,          0.000,          0.000,          0.000,          0.000,         34.292,        239.368,         17.007,         -0.303,         -0.007,       1130.285,         36.603,          1.000
        62.006,       5039.040,       5168.927,          5.109,      93099.305,        583.633,         33.441,         33.630,          0.189,          0.000,        181.513,          0.004,          1.675,        110.167,       2763.838,          0.008,          0.459,          0.009,          0.459,        279.566,          0.016,      54156.297,        276.640,      28845.363,          0.000,          0.000,          0.000,          0.000,          0.000,         34.281,        239.368,         17.817,         -0.301,         -0.007,       1121.810,         39.151,          1.000
        63.005,       5076.960,       5205.521,          5.138,      95862.648,        520.319,         33.154,         33.341,          0.188,          0.000,        181.522,          0.004,          1.763,         97.666,       2763.310,          0.007,          0.459,          0.009,          0.459,        279.450,          0.016,      55730.691,        276.640,      28646.723,          0.000,          0.000,          0.000,          0.000,          0.000,         34.269,        239.368,         18.363,         -0.299,         -0.006,       1121.295,         41.671,          1.000
        64.005,       5117.861,       5245.023,          5.170,      98626.281,        464.020,         32.868,         33.054,          0.187,          0.000,        181.531,          0.003,          1.851,         86.604,       2764.116,          0.007,          0.458,          0.009,          0.458,        279.323,          0.016,      57302.902,        276.640,      28442.395,          0.000,          0.000,          0.000,          0.000,          0.000,         34.257,        239.368,         19.042,         -0.298,         -0.007,       1120.364,         44.186,          1.000
        65.005,       5161.718,       5287.414,          5.204,     101391.320,        414.106,         32.583,         32.769,          0.186,          0.000,        181.540,          0.003,          1.939,         76.848,       2766.220,          0.007,          0.458,          0.009,          0.458,        279.184,          0.016,      58873.711,        276.217,      28232.346,          0.000,          0.000,          0.000,          0.000,          0.000,         34.246,        239.368,         19.805,         -0.295,         -0.006,       1119.779,         46.698,          1.000
        66.006,       5208.512,       5332.677,          5.242,     104159.062,        369.995,         32.301,         32.485,          0.185,          0.000,        181.549,          0.003,          2.025,         68.272,       2769.593,          0.007,          0.458,          0.009,          0.458,        279.034,          0.016,      60442.715,        274.722,      28015.734,          0.000,          0.000,          0.000,          0.000,          0.000,         34.234,        239.368,         20.539,         -0.295,         -0.006,       1119.491,         49.208,          1.000
        67.006,       5258.237,       5380.812,          5.273,     106930.898,        330.621,         32.021,         32.204,          0.183,          0.000,        181.557,          0.002,          2.112,         60.653,       2774.212,          0.007,          0.457,          0.009,          0.457,        278.907,          0.016,      62005.219,        273.315,      27792.250,          0.000,          0.000,          0.000,          0.000,          0.000,         34.222,        239.368,         21.314,         -0.292,         -0.006,       1119.610,         51.717,          1.000
        68.006,       5310.423,       5431.366,          5.299,     109707.750,        295.395,         31.742,         31.925,          0.182,          0.000,        181.566,          0.002,          2.170,         53.874,       2779.808,          0.007,          0.457,          0.009,          0.457,        278.806,          0.016,      62772.520,        272.677,      27563.697,          0.000,          0.000,          0.000,          0.000,          0.000,         34.209,        239.368,         21.998,         -0.290,         -0.006,       1119.852,         54.228,          1.000
        69.006,       5364.610,       5483.895,          5.326,     112490.719,        264.439,         31.466,         31.648,          0.181,          0.000,        181.575,          0.002,          2.228,         47.947,       2786.126,          0.007,          0.457,          0.009,          0.457,        278.697,          0.016,      63538.594,        272.052,      27331.801,          0.000,          0.000,          0.000,          0.000,          0.000,         34.197,        239.368,         22.693,         -0.288,         -0.006,       1120.102,         56.741,          1.000
        70.007,       5420.789,       5538.393,          5.355,     115280.164,        236.915,         31.193,         31.373,          0.180,          0.000,        181.583,          0.002,          2.286,         42.704,       2793.149,          0.007,          0.456,          0.009,          0.456,        278.581,          0.016,      64303.668,        271.440,      27096.559,          0.000,          0.000,          0.000,          0.000,          0.000,         34.184,        239.368,         23.517,         -0.286,         -0.006,       1120.206,         59.256,          1.000
        71.007,       5478.969,       5594.864,          5.386,     118077.164,        212.187,         30.921,         31.101,          0.179,          0.000,        181.592,          0.001,          2.344,         38.020,       2800.867,          0.007,          0.456,          0.009,          0.456,        278.459,          0.016,      65067.918,        270.842,      26857.971,          0.000,          0.000,          0.000,          0.000,          0.000,         34.172,        239.368,         24.227,         -0.284,         -0.006,       1120.014,         61.770,          1.000
        72.007,       5539.151,       5653.319,          5.418,     120882.039,        190.047,         30.653,         30.831,          0.178,          0.000,        181.601,          0.001,          2.402,         33.849,       2809.273,          0.007,          0.456,          0.009,          0.456,        278.329,          0.016,      65831.406,        270.257,      26616.037,          0.000,          0.000,          0.000,          0.000,          0.000,         34.159,        239.368,         24.972,         -0.281,         -0.006,       1119.586,         64.283,          1.000
        73.007,       5601.122,       5713.550,          5.452,     123695.797,        171.111,         30.386,         30.563,          0.177,          0.000,        181.609,          0.001,          2.446,         30.294,       2818.247,          0.007,          0.456,          0.009,          0.455,        278.193,          0.016,      66205.852,        269.987,      26371.561,          0.000,          0.000,          0.000,          0.000,          0.000,         34.146,        239.368,         25.806,         -0.279,         -0.006,       1119.661,         66.795,          1.000
        74.007,       5664.596,       5775.281,          5.487,     126518.594,        154.009,         30.123,         30.299,          0.176,          0.000,        181.618,          0.001,          2.489,         27.100,       2827.636,          0.007,          0.455,          0.009,          0.455,        278.053,          0.016,      66549.172,        269.742,      26125.588,          0.000,          0.000,          0.000,          0.000,          0.000,         34.132,        239.368,         26.534,         -0.277,         -0.007,       1119.305,         69.307,          1.000
        75.008,       5729.578,       5838.520,          5.523,     129351.094,        138.563,         29.862,         30.037,          0.175,          0.000,        181.626,          0.001,          2.532,         24.234,       2837.436,          0.007,          0.455,          0.008,          0.455,        277.908,          0.016,      66892.000,        269.497,      25878.117,          0.000,          0.000,          0.000,          0.000,          0.000,         34.119,        239.368,         27.371,         -0.275,         -0.007,       1118.575,         71.815,          1.000
        76.008,       5796.079,       5903.276,          5.561,     132193.500,        124.913,         29.604,         29.777,          0.174,          0.000,        181.634,          0.001,          2.575,         21.713,       2847.646,          0.007,          0.454,          0.008,          0.454,        277.759,          0.016,      67234.312,        269.254,      25629.154,          0.000,          0.000,          0.000,          0.000,          0.000,         34.105,        239.368,         28.234,         -0.272,         -0.007,       1117.852,         74.319,          1.000
        77.008,       5864.106,       5969.557,          5.599,     135046.391,        112.862,         29.348,         29.521,          0.173,          0.000,        181.643,          0.001,          2.619,         19.497,       2858.260,          0.007,          0.454,          0.008,          0.454,        277.604,          0.015,      67576.172,        269.012,      25378.691,          0.000,          0.000,          0.000,          0.000,          0.000,         34.091,        239.368,         29.047,         -0.269,         -0.006,       1117.185,         76.819,          1.000
        78.008,       5933.482,       6037.194,          5.639,     137910.031,        101.944,         29.095,         29.267,          0.172,          0.000,        181.651,          0.001,          2.649,         17.502,       2869.190,          0.007,          0.454,          0.008,          0.454,        277.447,          0.015,      67578.750,        269.023,      25127.387,          0.000,          0.000,          0.000,          0.000,          0.000,         34.077,        239.368,         29.861,         -0.267,         -0.006,       1116.144,         79.314,          1.000
        79.008,       6003.908,       6105.892,          5.679,     140784.672,         92.043,         28.845,         29.016,          0.171,          0.000,        181.659,          0.001,          2.678,         15.703,       2880.282,          0.007,          0.453,          0.008,          0.453,        277.286,          0.015,      67524.961,        269.076,      24876.314,          0.000,          0.000,          0.000,          0.000,          0.000,         34.063,        239.368,         30.746,         -0.264,         -0.006,       1114.679,         81.801,          1.000
        80.009,       6075.378,       6175.646,          5.720,     143670.594,         83.388,         28.598,         28.767,          0.170,          0.000,        181.667,          0.001,          2.706,         14.138,       2891.532,          0.007,          0.453,          0.008,          0.453,        277.123,          0.015,      67470.828,        269.127,      24625.479,          0.000,          0.000,          0.000,          0.000,          0.000,         34.049,        239.368,         31.650,         -0.261,         -0.006,       1113.434,         84.279,          1.000
        81.009,       6147.895,       6246.461,          5.761,     146567.688,         75.543,         28.353,         28.521,          0.168,          0.000,        181.676,          0.001,          2.735,         12.726,       2902.940,          0.007,          0.452,          0.008,          0.452,        276.957,          0.015,      67416.469,        269.177,      24374.900,          0.000,          0.000,          0.000,          0.000,          0.000,         34.034,        239.368,         32.551,         -0.259,         -0.006,       1111.843,         86.749,          1.000
        82.009,       6221.465,       6318.342,          5.803,     149476.359,         68.417,         28.111,         28.278,          0.167,          0.000,        181.684,          0.001,          2.764,         11.453,       2914.505,          0.007,          0.452,          0.008,          0.452,        276.789,          0.015,      67361.906,        269.227,      24124.582,          0.000,          0.000,          0.000,          0.000,          0.000,         34.019,        239.368,         33.386,         -0.257,         -0.005,       1109.907,         89.209,          1.000
        83.009,       6296.097,       6391.299,          5.846,     152396.656,         62.160,         27.872,         28.038,          0.166,          0.000,        181.692,          0.000,          2.794,         10.339,       2926.231,          0.007,          0.452,          0.008,          0.452,        276.619,          0.015,      67307.102,        269.275,      23874.500,          0.000,          0.000,          0.000,          0.000,          0.000,         34.004,        239.368,         34.303,         -0.254,         -0.005,       1108.214,         91.657,          1.000
        84.010,       6371.793,       6465.334,          5.889,     155328.688,         56.711,         27.636,         27.801,          0.165,          0.000,        181.700,          0.000,          2.823,          9.372,       2938.115,          0.007,          0.451,          0.008,          0.451,        276.446,          0.015,      67252.094,        269.323,      23624.656,          0.000,          0.000,          0.000,          0.000,          0.000,         33.989,        239.368,         35.176,         -0.252,         -0.006,       1106.937,         94.096,          1.000
        85.010,       6448.563,       6540.458,          5.960,     158272.812,         51.740,         27.402,         27.566,          0.164,          0.000,        181.708,          0.000,          2.853,          8.495,       2950.161,          0.007,          0.450,          0.008,          0.450,        276.164,          0.015,      67197.047,        269.371,      23375.082,          0.000,          0.000,          0.000,          0.000,          0.000,         33.973,        239.368,         36.165,         -0.249,         -0.006,       1105.142,         96.526,          1.000
        86.010,       6526.421,       6616.683,          6.032,     161228.953,         47.207,         27.171,         27.334,          0.163,          0.000,        181.715,          0.000,          2.883,          7.700,       2962.373,          0.007,          0.450,          0.008,          0.450,        275.876,          0.015,      67141.859,        269.419,      23125.758,          0.000,          0.000,          0.000,          0.000,          0.000,         33.957,        239.368,         37.070,         -0.247,         -0.006,       1103.162,         98.944,          1.000
        87.000,       6604.584,       6693.243,          6.104,     164167.688,         43.320,         26.945,         27.107,          0.162,          0.000,        181.723,          0.000,          2.914,          7.020,       2974.629,          0.007,          0.449,          0.008,          0.449,        275.587,          0.015,      67087.062,        269.465,      22879.160,          0.000,          0.000,          0.000,          0.000,          0.000,         33.942,        239.368,         38.028,         -0.243,         -0.006,       1101.842,        101.328,          1.000
        88.000,       6684.459,       6771.516,          6.178,     167148.547,         39.726,         26.720,         26.880,          0.161,          0.000,        181.731,          0.000,          2.929,          6.395,       2987.098,          0.007,          0.448,          0.008,          0.448,        275.292,          0.015,      66664.375,        269.795,      22630.883,          0.000,          0.000,          0.000,          0.000,          0.000,         33.926,        239.368,         39.017,         -0.241,         -0.006,       1100.305,        103.728,          1.000
        89.001,       6764.727,       6850.208,          6.266,     170141.719,         36.430,         26.497,         26.657,          0.160,          0.000,        181.739,          0.000,          2.936,          5.825,       2999.416,          0.007,          0.447,          0.008,          0.447,        274.939,          0.015,      66076.820,        270.259,      22385.104,          0.000,          0.000,          0.000,          0.000,          0.000,         33.909,        239.368,         39.999,         -0.239,         -0.006,       1098.391,        106.117,          1.000
        90.001,       6845.341,       6929.271,          6.371,     173147.156,         33.450,         26.277,         26.435,          0.159,          0.000,        181.747,          0.000,          2.943,          5.313,       3011.565,          0.007,          0.446,          0.008,          0.446,        274.521,          0.015,      65489.199,        270.733,      22141.922,          0.000,          0.000,          0.000,          0.000,          0.000,         33.893,        239.368,         40.958,         -0.236,         -0.006,       1096.341,        108.495,          1.000
        91.001,       6926.286,       7008.696,          6.477,     176164.734,         30.745,         26.059,         26.217,          0.158,          0.000,        181.754,          0.000,          2.950,          4.851,       3023.543,          0.007,          0.445,          0.008,          0.445,        274.096,          0.015,      64901.484,        271.217,      21901.334,          0.000,          0.000,          0.000,          0.000,          0.000,         33.876,        239.368,         41.995,         -0.234,         -0.006,       1094.218,        110.859,          1.000
        92.001,       7007.556,       7088.468,          6.585,     179194.078,         28.262,         25.844,         26.001,          0.157,          0.000,        181.762,          0.000,          2.956,          4.429,       3035.349,          0.007,          0.444,          0.008,          0.444,        273.666,          0.015,      64313.695,        271.711,      21663.352,          0.000,          0.000,          0.000,          0.000,          0.000,         33.859,        239.368,         42.991,         -0.232,         -0.006,       1091.879,        113.211,          1.000
        93.001,       7089.135,       7168.577,          6.694,     182235.172,         25.951,         25.632,         25.787,          0.156,          0.000,        181.770,          0.000,          2.962,          4.039,       3046.980,          0.007,          0.443,          0.008,          0.443,        273.228,          0.015,      63725.852,        272.216,      21427.965,          0.000,          0.000,          0.000,          0.000,          0.000,         33.841,        239.368,         44.061,         -0.230,         -0.006,       1089.123,        115.547,          1.000
        94.002,       7171.020,       7249.016,          6.805,     185287.906,         23.723,         25.422,         25.576,          0.155,          0.000,        181.777,          0.000,          2.968,          3.667,       3058.437,          0.007,          0.442,          0.008,          0.442,        272.784,          0.015,      63137.961,        272.732,      21195.176,          0.000,          0.000,          0.000,          0.000,          0.000,         33.824,        239.368,         45.074,         -0.227,         -0.006,       1085.386,        117.864,          1.000
        95.002,       7253.194,       7329.766,          6.918,     188351.875,         21.687,         25.214,         25.368,          0.153,          0.000,        181.785,          0.000,          2.974,          3.329,       3069.716,          0.007,          0.441,          0.008,          0.441,        272.334,          0.015,      62550.016,        273.259,      20964.986,          0.000,          0.000,          0.000,          0.000,          0.000,         33.806,        239.368,         46.096,         -0.225,         -0.006,       1081.449,        120.158,          1.000
        96.002,       7335.646,       7410.821,          7.032,     191427.109,         19.824,         25.009,         25.161,          0.152,          0.000,        181.792,          0.000,          2.979,          3.022,       3080.817,          0.007,          0.440,          0.008,          0.440,        271.876,          0.015,      61962.023,        273.799,      20737.395,          0.000,          0.000,          0.000,          0.000,          0.000,         33.788,        239.368,         47.200,         -0.223,         -0.006,       1077.299,        122.428,          1.000
        97.002,       7418.362,       7492.164,          7.148,     194513.438,         18.032,         24.806,         24.958,          0.151,          0.000,        181.800,          0.000,          2.984,          2.729,       3091.738,          0.007,          0.439,          0.008,          0.439,        271.412,          0.015,      61373.996,        274.350,      20512.402,          0.000,          0.000,          0.000,          0.000,          0.000,         33.770,        239.367,         48.308,         -0.221,         -0.005,       1072.090,        124.671,          1.000
        98.003,       7501.380,       7573.830,          7.266,     197610.438,         16.390,         24.606,         24.756,          0.150,          0.000,        181.807,          0.000,          2.993,          2.463,       3102.496,          0.007,          0.437,          0.008,          0.437,        270.940,          0.015,      60883.547,        274.820,      20289.887,          0.000,          0.000,          0.000,          0.000,          0.000,         33.751,        239.365,         49.405,         -0.219,         -0.005,       1066.586,        126.883,          1.000
        99.003,       7584.904,       7656.020,          7.386,     200718.234,         14.895,         24.408,         24.558,          0.149,          0.000,        181.815,          0.000,          3.006,          2.223,       3113.179,          0.007,          0.436,          0.008,          0.436,        270.460,          0.015,      60478.789,        275.216,      20069.252,          0.000,          0.000,          0.000,          0.000,          0.000,         33.733,        239.364,         50.534,         -0.216,         -0.005,       1060.911,        129.063,          1.000
